[
  {
    "name": "Hitos del Siglo XXI",
    "lat": -27.757551237016195,
    "lng": -64.25930142402648,
    "iconPath": "/markers/marker-default.png",
    "popupImg": "imgs/map/icons/hitos-siglo-xxi.png",
    "popupImgWidth": "70px",
    "popupImgHeight": "100px"
  },
  {
    "name": "Hitos del Siglo XX",
    "lat":  -27.75732337528613,
    "lng":  -64.26101803779602,
    "iconPath": "/markers/marker-default.png",
    "popupImg": "imgs/map/icons/hitos-siglo-xx.png",
    "popupImgWidth": "70px",
    "popupImgHeight": "100px"
  },
  {
    "name": "El P칩rtico",
    "lat": -27.757845557711693,
    "lng": -64.26034212112427,
    "iconPath": "/markers/marker-default.png",
    "popupImg": "/imgs/map/icons/portico.png",
    "popupImgWidth": "70px",
    "popupImgHeight": "100px"
  },
  {
    "name": "Zona rob칩tica",
    "lat": -27.76048491419132,
    "lng": -64.2601490020752,
    "iconPath": "/markers/marker-default.png",
    "popupImg": "/imgs/map/icons/zona-robotica.png",
    "popupImgWidth": "120px",
    "popupImgHeight": "100px"
  },
  {
    "name": "Robot MonsterFX",
    "lat": -27.76101657537868,
    "lng": -64.26113605499268,
    "iconPath": "/markers/marker-default.png",
    "popupImg": "/imgs/map/icons/robot-monsterfx.png",
    "popupImgWidth": "120px",
    "popupImgHeight": "100px"
  },
  {
    "name": "Caminos y conectividad",
    "lat": -27.758548126477745,
    "lng": -64.26050305366516,
    "iconPath": "/markers/marker-default.png",
    "popupImg": "/imgs/map/icons/camino-conectividad.png",
    "popupImgWidth": "100px",
    "popupImgHeight": "100px"
  },
  {
    "name": "Lo nuestro",
    "lat": -27.75839622010171,
    "lng": -64.26121115684509,
    "iconPath": "/markers/marker-default.png",
    "popupImg": "imgs/map/icons/lo-nuestro.png",
    "popupImgWidth": "70px",
    "popupImgHeight": "100px"
  },
  {
    "name": "ECO Laberinto",
    "lat": -27.758994350231454,
    "lng": -64.25987005233765,
    "iconPath": "/markers/marker-default.png",
    "popupImg": "/imgs/map/icons/eco-laberinto.png",
    "popupImgWidth": "100px",
    "popupImgHeight": "70px"
  },
  {
    "name": "Santiague침os por el Mundo",
    "lat": -27.759554500864983,
    "lng": -64.25997734069824,
    "iconPath": "/markers/marker-default.png",
    "popupImg": "/imgs/map/icons/santiaguenos-2.png",
    "popupImgWidth": "100px",
    "popupImgHeight": "100px"
  },
  {
    "name": "Todo Santiago",
    "lat": -27.75852913819233,
    "lng": -64.25976276397705,
    "iconPath": "/markers/marker-default.png",
    "popupImg": "/imgs/map/icons/todo-santiago.png",
    "popupImgWidth": "100px",
    "popupImgHeight": "100px"
  },
  {
    "name": "Santiague침os por el Mundo",
    "lat": -27.75878547976592,
    "lng": -64.26128625869751,
    "iconPath": "/markers/marker-default.png",
    "popupImg": "/imgs/map/icons/santiaguenos-1.png",
    "popupImgWidth": "100px",
    "popupImgHeight": "100px"
  },
  {
    "name": "El Santiago que queremos",
    "lat": -27.759269678869146,
    "lng":  -64.26140427589417,
    "iconPath": "/markers/marker-default.png",
    "popupImg": "/imgs/map/icons/santiago-que-queremos.png",
    "popupImgWidth": "140px",
    "popupImgHeight": "100px"
  },
  {
    "name": "Entre sin golpear",
    "lat": -27.759089291219667,
    "lng": -64.26067471504211,
    "iconPath": "/markers/marker-default.png",
    "popupImg": "/imgs/map/icons/entre-sin-golpear.png",
    "popupImgWidth": "140px",
    "popupImgHeight": "100px"
  },
  {
    "name": "Santiago 360",
    "lat": -27.759715899665167,
    "lng": -64.26067471504211,
    "iconPath": "/markers/marker-default.png",
    "popupImg": "/imgs/map/icons/santiago-360.png",
    "popupImgWidth": "150px",
    "popupImgHeight": "90px"
  },
  {
    "name": "Inteligencias para el desarrollo",
    "lat": -27.759886792251578,
    "lng": -64.26151156425476,
    "iconPath": "/markers/marker-default.png",
    "popupImg": "/imgs/map/icons/inteligencias-desarrollo.png",
    "popupImgWidth": "140px",
    "popupImgHeight": "100px"
  }
]
